CUSTOM.date [local],CUSTOM.updateTime [local],OSD.flyTime,OSD.flyTime [s],OSD.latitude,OSD.longitude,OSD.height [ft],OSD.heightMax [ft],OSD.vpsHeight [ft],OSD.altitude [ft],OSD.mileage [ft],OSD.hSpeed [MPH],OSD.hSpeedMax [MPH],OSD.xSpeed [MPH],OSD.xSpeedMax [MPH],OSD.ySpeed [MPH],OSD.ySpeedMax [MPH],OSD.zSpeed [MPH],OSD.zSpeedMax [MPH],OSD.pitch,OSD.roll,OSD.yaw,OSD.yaw [360],OSD.directionOfTravel,OSD.flycState,OSD.flycCommand,OSD.flightAction,OSD.gpsNum,OSD.gpsLevel,OSD.isGPSUsed,OSD.nonGPSCause,OSD.droneType,OSD.isSwaveWork,OSD.waveError,OSD.goHomeStatus,OSD.batteryType,OSD.ctrlDevice,OSD.isOnGround,OSD.isMotorOn,OSD.isMotorBlocked,OSD.motorStartFailedCause,OSD.motorFailReason,OSD.isImuPreheated,OSD.imuInitFailReason,OSD.isAcceletorOverRange,OSD.isBarometerDeadInAir,OSD.isCompassError,OSD.isGoHomeHeightModified,OSD.canIOCWork,OSD.isNotEnoughForce,OSD.isOutOfLimit,OSD.isPropellerCatapult,OSD.isVibrating,OSD.isVisionUsed,OSD.voltageWarning,GIMBAL.mode,GIMBAL.pitch,GIMBAL.roll,GIMBAL.yaw,GIMBAL.yaw [360],GIMBAL.isPitchAtLimit,GIMBAL.isRollAtLimit,GIMBAL.isYawAtLimit,GIMBAL.isStuck,CAMERA.isPhoto,CAMERA.isVideo,CAMERA.filename,CAMERA.sdCardIsInserted,CAMERA.sdCardState,RC.downlinkSignal,RC.uplinkSignal,RC.aileron,RC.elevator,RC.throttle,RC.rudder,RC.mode,RC.goHomeDepressed,RC.recordDepressed,RC.shutterDepressed,RC.playbackDepressed,RC.wheelDepressed,RC.wheelOffset,RC.custom1Depressed,RC.custom2Depressed,RC.custom3Depressed,RC.custom4Depressed,BATTERY.chargeLevel,BATTERY.currentPV [V],BATTERY.currentCapacity [mAh],BATTERY.fullCapacity [mAh],BATTERY.voltage [V],BATTERY.isCellVoltageEstimated,BATTERY.cellVoltage1 [V],BATTERY.cellVoltage2 [V],BATTERY.cellVoltage3 [V],BATTERY.cellVoltage4 [V],BATTERY.maxCellVoltageDeviation,BATTERY.isCellVoltageDeviationHigh,BATTERY.isVoltageLow,BATTERY.current [A],BATTERY.temperature [F],BATTERY.minTemperature [F],BATTERY.maxTemperature [F],BATTERY.usefulTime [s],BATTERY.goHomeTime [s],BATTERY.landTime [s],BATTERY.goHomeBattery,BATTERY.landBattery,BATTERY.safeFlyRadius,BATTERY.volumeConsume,BATTERY.status,BATTERY.goHomeStatus,BATTERY.goHomeCountdown,BATTERY.lowWarning,BATTERY.lowWarningGoHome,BATTERY.seriousLowWarning,BATTERY.seriousLowWarningLanding,BATTERY.timesCharged,MC.failSafeAction,MC.isObstacleAvoidanceEnabled,MC.isCollisionAvoidanceEnabled,MC.isRthObstacleAvoidanceEnabled,MC.isBraking,MC.isAvoidingObstacle,MC.isAvoidingActiveObstacle,MC.isAscentLimitedByObstacle,MC.isLandingConfirmationNeeded,MC.atLowAltitudeLimit,MC.atDistanceLimit,MC.atAirportAltitudeLimit,MC.atAirportBoundary,HOME.latitude,HOME.longitude,HOME.distance [ft],HOME.height [ft],HOME.heightLimit [ft],HOME.isHomeRecord,HOME.goHomeMode,HOME.aircraftHeadDirection,HOME.isDynamicHomePointEnabled,HOME.isReachedLimitDistance,HOME.isReachedLimitHeight,HOME.isCompassCalibrating,HOME.compassCalibrationState,HOME.isMultipleFlightModeEnabled,HOME.isBeginnerMode,HOME.isIOCEnabled,HOME.iocMode,HOME.goHomeHeight [ft],HOME.courseLockAngle,HOME.forceLandingHeight [ft],HOME.dataRecorderFileIndex,WEATHER.windDirection,WEATHER.windRelativeDirection,WEATHER.windSpeed [MPH],WEATHER.maxWindSpeed [MPH],WEATHER.windStrength,WEATHER.isFacingWind,WEATHER.isFlyingIntoWind,RECOVER.appType,RECOVER.appVersion,RECOVER.aircraftName,RECOVER.aircraftSerial,RECOVER.cameraSerial,RECOVER.rcSerial,RECOVER.batterySerial,DETAILS.totalTime [s],DETAILS.totalDistance [ft],DETAILS.maxHeight [ft],DETAILS.maxHorizontalSpeed [MPH],DETAILS.maxVerticalSpeed [MPH],DETAILS.photoNum,DETAILS.videoTime [s],DETAILS.aircraftName,DETAILS.aircraftSerial,DETAILS.cameraSerial,DETAILS.rcSerial,DETAILS.batterySerial,DETAILS.appName,DETAILS.appType,DETAILS.appVersion,DETAILS.guid,SERIAL.flightController,SERIAL.camera,SERIAL.gimbal,SERIAL.rc,SERIAL.battery,APPGPS.latitude,APPGPS.longitude,APPGPS.accuracy,APP.tip,APP.warning
9/29/2024,3:00:43.64 PM,0m 0.0s,0.0,55.3539681478155,13.42132614331,0,0,,0,0,0,0,0,0,0,0,0,0,2.8,0.3,-9.7,350.3,,Starting Motors,Auto Fly,Takeoff (App Auto),20,5,True,,Mavic 2,False,False,,Smart,RC,True,True,False,,,True,,False,False,False,False,False,False,False,False,False,False,0,Follow Yaw,0,0,-14.7,345.3,False,False,False,False,False,True,,True,Needs Formatted,,,1024,1024,1024,1024,0,False,False,False,False,False,0,False,False,False,False,,14.96,,,14.96,False,3.739,3.745,3.744,3.732,0.013,False,False,,,,,,,,,,,,,Idle,,,,,,0,Go Home,False,False,False,False,False,False,False,False,False,False,False,False,,,,,,False,,,False,False,False,False,,False,False,False,,,,,,,,,,Calm,False,False,iOS,4.3.64,Zoomster 2,0M63G820H1V008,0K8HFB801103C3,0VELF7E10601P2,0P2AF8T534023X,216.3,2175.9,392.7,31.641516,9.171454,0,164,Zoomster 2,0M63G820H1V008,0K8HFB801103C3,0VELF7E10601P2,0P2AF8T534023X,,iOS,4.3.64,111C2313-DD9C-4E0D-B5A9-A6F7704ADE73,0M63G820H1V008,0K8HFB801103C3,,0VELF7E10601P2,0P2AF8T534023X,55.3539833491175,13.4211793411548,6.0009,Flight mode changed to Starting Motors.,
9/29/2024,3:00:43.74 PM,0m 0.1s,0.1,55.3539681411375,13.4213261429182,0,0,,0,0,0,0,0,0,0,0,0,0,2.8,0.3,-9.7,350.3,,Starting Motors,Auto Fly,Takeoff (App Auto),20,5,True,,Mavic 2,False,False,,Smart,RC,True,True,False,,,True,,False,False,False,False,False,False,False,False,False,False,0,Follow Yaw,0,0,-14.7,345.3,False,False,False,False,False,True,,True,Needs Formatted,,,1024,1024,1024,1024,0,False,False,False,False,False,0,False,False,False,False,,14.96,,,14.96,False,3.739,3.745,3.744,3.732,0.013,False,False,,,,,,,,,,,,,Idle,,,,,,0,Go Home,False,False,False,False,False,False,False,False,False,False,False,False,,,,,,False,,,False,False,False,False,,False,False,False,,,,,,,,,,Calm,False,False,iOS,4.3.64,Zoomster 2,0M63G820H1V008,0K8HFB801103C3,0VELF7E10601P2,0P2AF8T534023X,216.3,2175.9,392.7,31.641516,9.171454,0,164,Zoomster 2,0M63G820H1V008,0K8HFB801103C3,0VELF7E10601P2,0P2AF8T534023X,,iOS,4.3.64,111C2313-DD9C-4E0D-B5A9-A6F7704ADE73,0M63G820H1V008,0K8HFB801103C3,,0VELF7E10601P2,0P2AF8T534023X,55.3539833491175,13.4211793411548,6.0009,,
9/29/2024,3:00:43.84 PM,0m 0.2s,0.2,55.3539681496799,13.4213261445872,0,0,,0,0,0,0,0,0,0,0,0,0,2.8,0.3,-9.7,350.3,,Starting Motors,Auto Fly,Takeoff (App Auto),20,5,True,,Mavic 2,False,False,,Smart,RC,True,True,False,,,True,,False,False,False,False,False,False,False,False,False,False,0,Follow Yaw,0,0,-14.7,345.3,False,False,False,False,False,True,,True,Needs Formatted,,,1024,1024,1024,1024,0,False,False,False,False,False,0,False,False,False,False,,14.96,,,14.96,False,3.739,3.745,3.744,3.732,0.013,False,False,,,,,,,,,,,,,Idle,,,,,,0,Go Home,False,False,False,False,False,False,False,False,False,False,False,False,,,,,,False,,,False,False,False,False,,False,False,False,,,,,,,,,,Calm,False,False,iOS,4.3.64,Zoomster 2,0M63G820H1V008,0K8HFB801103C3,0VELF7E10601P2,0P2AF8T534023X,216.3,2175.9,392.7,31.641516,9.171454,0,164,Zoomster 2,0M63G820H1V008,0K8HFB801103C3,0VELF7E10601P2,0P2AF8T534023X,,iOS,4.3.64,111C2313-DD9C-4E0D-B5A9-A6F7704ADE73,0M63G820H1V008,0K8HFB801103C3,,0VELF7E10601P2,0P2AF8T534023X,55.3539833491175,13.4211793411548,6.0009,,
9/29/2024,3:00:43.94 PM,0m 0.3s,0.3,55.353968143608,13.4213261464784,0,0,,0,0,0,0,0,0,0,0,0,0,2.8,0.3,-9.7,350.3,,Starting Motors,Auto Fly,Takeoff (App Auto),20,5,True,,Mavic 2,False,False,,Smart,RC,True,True,False,,,True,,False,False,False,False,False,False,False,False,False,False,0,Follow Yaw,0,0,-14.7,345.3,False,False,False,False,False,True,,True,Needs Formatted,,,1024,1024,1024,1024,0,False,False,False,False,False,0,False,False,False,False,36,14.96,,,14.897,False,3.739,3.745,3.744,3.732,0.013,False,False,,,,,,1,,,10,5986.6,1535.04,,Idle,,25,,10,,0,Go Home,False,False,False,False,False,False,False,False,False,False,False,False,55.3539612483092,13.4213247978412,2.5,,984.2,True,1,1,False,False,False,False,,False,False,False,Course Lock,98.4,31,16.4,18,,,,,Calm,False,False,iOS,4.3.64,Zoomster 2,0M63G820H1V008,0K8HFB801103C3,0VELF7E10601P2,0P2AF8T534023X,216.3,2175.9,392.7,31.641516,9.171454,0,164,Zoomster 2,0M63G820H1V008,0K8HFB801103C3,0VELF7E10601P2,0P2AF8T534023X,,iOS,4.3.64,111C2313-DD9C-4E0D-B5A9-A6F7704ADE73,0M63G820H1V008,0K8HFB801103C3,,0VELF7E10601P2,0P2AF8T534023X,55.3539833491175,13.4211793411548,6.0009,Data Recorder File Index is 18.; Set Return to Home (RTH) altitude to 30 m (98 ft).; Set maximum flight altitude to 300 m (984 ft).,
9/29/2024,3:00:44.04 PM,0m 0.4s,0.4,55.3539681515486,13.4213261449922,0,0,,0,0,0,0,0,0,0,0,0,0,2.8,0.3,-9.7,350.3,,Starting Motors,Auto Fly,Takeoff (App Auto),20,5,True,,Mavic 2,False,False,,Smart,RC,True,True,False,,,True,,False,False,False,False,False,False,False,False,False,False,0,Follow Yaw,0,0,-14.7,345.3,False,False,False,False,False,True,,True,Needs Formatted,,,1024,1024,1024,1024,0,False,False,False,False,False,0,False,False,False,False,36,14.96,,,14.897,False,3.739,3.745,3.744,3.732,0.013,False,False,,,,,,1,,,10,5986.6,1535.04,,Idle,,25,,10,,0,Go Home,False,False,False,False,False,False,False,False,False,False,False,False,55.3539612483092,13.4213247978412,2.5,,984.2,True,1,1,False,False,False,False,,False,False,False,Course Lock,98.4,31,16.4,18,,,,,Calm,False,False,iOS,4.3.64,Zoomster 2,0M63G820H1V008,0K8HFB801103C3,0VELF7E10601P2,0P2AF8T534023X,216.3,2175.9,392.7,31.641516,9.171454,0,164,Zoomster 2,0M63G820H1V008,0K8HFB801103C3,0VELF7E10601P2,0P2AF8T534023X,,iOS,4.3.64,111C2313-DD9C-4E0D-B5A9-A6F7704ADE73,0M63G820H1V008,0K8HFB801103C3,,0VELF7E10601P2,0P2AF8T534023X,55.3539833491175,13.4211793411548,6.0009,,
9/29/2024,3:00:44.14 PM,0m 0.5s,0.5,55.353968146795,13.4213261460922,0,0,,0,0,0,0,0,0,0,0,0,0,2.8,0.3,-9.7,350.3,,Starting Motors,Auto Fly,Takeoff (App Auto),20,5,True,,Mavic 2,False,False,,Smart,RC,True,True,False,,,True,,False,False,False,False,False,False,False,False,False,False,0,Follow Yaw,0,0,-14.7,345.3,False,False,False,False,False,True,,True,Needs Formatted,,,1024,1024,1024,1024,0,False,False,False,False,False,0,False,False,False,False,36,14.779,1025,2901,14.897,False,3.694,3.704,3.7,3.681,0.023,False,False,3.448,113.5,113.5,113.5,,1,,,10,5986.6,1535.04,,Idle,,25,,10,,0,Go Home,False,False,False,False,False,False,False,False,False,False,False,False,55.3539612483092,13.4213247978412,2.5,,984.2,True,1,1,False,False,False,False,,False,False,False,Course Lock,98.4,31,16.4,18,,,,,Calm,False,False,iOS,4.3.64,Zoomster 2,0M63G820H1V008,0K8HFB801103C3,0VELF7E10601P2,0P2AF8T534023X,216.3,2175.9,392.7,31.641516,9.171454,0,164,Zoomster 2,0M63G820H1V008,0K8HFB801103C3,0VELF7E10601P2,0P2AF8T534023X,,iOS,4.3.64,111C2313-DD9C-4E0D-B5A9-A6F7704ADE73,0M63G820H1V008,0K8HFB801103C3,,0VELF7E10601P2,0P2AF8T534023X,55.3539833491175,13.4211793411548,6.0009,,
9/29/2024,3:00:44.24 PM,0m 0.6s,0.6,55.3539681556061,13.4213261417993,0,0,,0,0,0,0,0,0,0,0,0,0,2.8,0.3,-9.7,350.3,,Starting Motors,Auto Fly,Takeoff (App Auto),20,5,True,,Mavic 2,False,False,,Smart,RC,True,True,False,,,True,,False,False,False,False,False,False,False,False,False,False,0,Follow Yaw,0,0,-14.7,345.3,False,False,False,False,False,True,,True,Needs Formatted,,,1024,1024,1024,1024,0,False,False,False,False,False,0,False,False,False,False,36,14.779,1025,2901,14.897,False,3.694,3.704,3.7,3.681,0.023,False,False,3.448,113.5,113.5,113.5,,1,,,10,5986.6,1535.04,,Idle,,25,,10,,0,Go Home,False,False,False,False,False,False,False,False,False,False,False,False,55.3539612483092,13.4213247978412,2.5,,984.2,True,1,1,False,False,False,False,,False,False,False,Course Lock,98.4,31,16.4,18,,,,,Calm,False,False,iOS,4.3.64,Zoomster 2,0M63G820H1V008,0K8HFB801103C3,0VELF7E10601P2,0P2AF8T534023X,216.3,2175.9,392.7,31.641516,9.171454,0,164,Zoomster 2,0M63G820H1V008,0K8HFB801103C3,0VELF7E10601P2,0P2AF8T534023X,,iOS,4.3.64,111C2313-DD9C-4E0D-B5A9-A6F7704ADE73,0M63G820H1V008,0K8HFB801103C3,,0VELF7E10601P2,0P2AF8T534023X,55.3539833491175,13.4211793411548,6.0009,,
9/29/2024,3:00:44.34 PM,0m 0.7s,0.7,55.3539681523121,13.421326141967,0,0,,0,0,0,0,0,0,0,0,0,0,2.8,0.3,-9.7,350.3,,Starting Motors,Auto Fly,Takeoff (App Auto),20,5,True,,Mavic 2,False,False,,Smart,RC,True,True,False,,,True,,False,False,False,False,False,False,False,False,False,False,0,Follow Yaw,0,0,-14.7,345.3,False,False,False,False,False,True,,True,Needs Formatted,,,1024,1024,1024,1024,0,False,False,False,False,False,0,False,False,False,False,36,14.779,1025,2901,14.897,False,3.694,3.704,3.7,3.681,0.023,False,False,3.448,113.5,113.5,113.5,,1,,,10,5986.6,1535.04,,Idle,,25,,10,,0,Go Home,False,False,False,False,False,False,False,False,False,False,False,False,55.3539612483092,13.4213247978412,2.5,,984.2,True,1,1,False,False,False,False,,False,False,False,Course Lock,98.4,31,16.4,18,,,,,Calm,False,False,iOS,4.3.64,Zoomster 2,0M63G820H1V008,0K8HFB801103C3,0VELF7E10601P2,0P2AF8T534023X,216.3,2175.9,392.7,31.641516,9.171454,0,164,Zoomster 2,0M63G820H1V008,0K8HFB801103C3,0VELF7E10601P2,0P2AF8T534023X,,iOS,4.3.64,111C2313-DD9C-4E0D-B5A9-A6F7704ADE73,0M63G820H1V008,0K8HFB801103C3,,0VELF7E10601P2,0P2AF8T534023X,55.3539833491175,13.4211793411548,6.0009,,
9/29/2024,3:00:44.44 PM,0m 0.8s,0.8,55.3539681607506,13.4213261394184,0,0,,0,0,0,0,0,0,0,0,0,0,2.8,0.3,-9.6,350.4,,Starting Motors,Auto Fly,Takeoff (App Auto),20,5,True,,Mavic 2,False,False,,Smart,RC,True,True,False,,,True,,False,False,False,False,False,False,False,False,False,False,0,Follow Yaw,0,0,-14.7,345.3,False,False,False,False,False,True,,True,Needs Formatted,,,1024,1024,1024,1024,0,False,False,False,False,False,0,False,False,False,False,36,14.779,1025,2901,14.897,False,3.694,3.704,3.7,3.681,0.023,False,False,3.448,113.5,113.5,113.5,,1,,,10,5986.6,1535.04,,Idle,,25,,10,,0,Go Home,False,False,False,False,False,False,False,False,False,False,False,False,55.3539612483092,13.4213247978412,2.5,,984.2,True,1,1,False,False,False,False,,False,False,False,Course Lock,98.4,31,16.4,18,,,,,Calm,False,False,iOS,4.3.64,Zoomster 2,0M63G820H1V008,0K8HFB801103C3,0VELF7E10601P2,0P2AF8T534023X,216.3,2175.9,392.7,31.641516,9.171454,0,164,Zoomster 2,0M63G820H1V008,0K8HFB801103C3,0VELF7E10601P2,0P2AF8T534023X,,iOS,4.3.64,111C2313-DD9C-4E0D-B5A9-A6F7704ADE73,0M63G820H1V008,0K8HFB801103C3,,0VELF7E10601P2,0P2AF8T534023X,55.3539833491175,13.4211793411548,6.0009,,
9/29/2024,3:00:44.54 PM,0m 0.9s,0.9,55.3539681585532,13.4213261390586,0,0,,0,0,0,0,0,0,0,0,0,0,2.8,0.4,-9.8,350.2,,Starting Motors,Auto Fly,Takeoff (App Auto),20,5,True,,Mavic 2,False,False,,Smart,RC,True,True,False,,,True,,False,False,False,False,False,False,False,False,False,False,0,Follow Yaw,0,0,-14.7,345.3,False,False,False,False,False,True,,True,Needs Formatted,,,1024,1024,1024,1024,0,False,False,False,False,False,0,False,False,False,False,36,14.779,1025,2901,14.897,False,3.694,3.704,3.7,3.681,0.023,False,False,3.448,113.5,113.5,113.5,,1,,,10,5986.6,1535.04,,Idle,,25,,10,,0,Go Home,False,False,False,False,False,False,False,False,False,False,False,False,55.3539612483092,13.4213247978412,2.5,,984.2,True,1,1,False,False,False,False,,False,False,False,Course Lock,98.4,31,16.4,18,,,,,Calm,False,False,iOS,4.3.64,Zoomster 2,0M63G820H1V008,0K8HFB801103C3,0VELF7E10601P2,0P2AF8T534023X,216.3,2175.9,392.7,31.641516,9.171454,0,164,Zoomster 2,0M63G820H1V008,0K8HFB801103C3,0VELF7E10601P2,0P2AF8T534023X,,iOS,4.3.64,111C2313-DD9C-4E0D-B5A9-A6F7704ADE73,0M63G820H1V008,0K8HFB801103C3,,0VELF7E10601P2,0P2AF8T534023X,55.3539833491175,13.4211793411548,6.0009,,
9/29/2024,3:00:44.64 PM,0m 1.0s,1.0,55.3539681637437,13.4213261373558,0,0,,0,0,0,0,0,0,0,0,0,0,2.8,0.3,-9.7,350.3,,Auto Takeoff,Auto Fly,Takeoff (App Auto),20,5,True,,Mavic 2,False,False,,Smart,RC,True,True,False,,,True,,False,False,False,False,False,False,False,False,False,False,0,Follow Yaw,0,0,-14.7,345.3,False,False,False,False,False,True,,True,Needs Formatted,,,1024,1024,1024,1024,0,False,False,False,False,False,0,False,False,False,False,36,14.779,1025,2901,14.897,False,3.694,3.704,3.7,3.681,0.023,False,False,3.448,113.5,113.5,113.5,,1,,,10,5986.6,1535.04,,Idle,,25,,10,,0,Go Home,False,False,False,False,False,False,False,False,False,False,False,False,55.3539612483092,13.4213247978412,2.5,,984.2,True,1,1,False,False,False,False,,False,False,False,Course Lock,98.4,31,16.4,18,,,,,Calm,False,False,iOS,4.3.64,Zoomster 2,0M63G820H1V008,0K8HFB801103C3,0VELF7E10601P2,0P2AF8T534023X,216.3,2175.9,392.7,31.641516,9.171454,0,164,Zoomster 2,0M63G820H1V008,0K8HFB801103C3,0VELF7E10601P2,0P2AF8T534023X,,iOS,4.3.64,111C2313-DD9C-4E0D-B5A9-A6F7704ADE73,0M63G820H1V008,0K8HFB801103C3,,0VELF7E10601P2,0P2AF8T534023X,55.3539833491175,13.4211793411548,6.0009,Flight mode changed to Auto Takeoff.,
9/29/2024,3:00:44.74 PM,0m 1.1s,1.1,55.3539681619543,13.4213261356981,0,0,,0,0,0,0,0,0,0,0,0,0,2.8,0.3,-9.7,350.3,,Auto Takeoff,Auto Fly,Takeoff (App Auto),20,5,True,,Mavic 2,False,False,,Smart,RC,True,True,False,,,True,,False,False,False,False,False,False,False,False,False,False,0,Follow Yaw,0,0,-14.7,345.3,False,False,False,False,False,True,,True,Needs Formatted,,,1024,1024,1024,1024,0,False,False,False,False,False,0,False,False,False,False,36,14.779,1025,2901,14.897,False,3.694,3.704,3.7,3.681,0.023,False,False,3.448,113.5,113.5,113.5,,1,,,10,5986.6,1535.04,,Idle,,25,,10,,0,Go Home,False,False,False,False,False,False,False,False,False,False,False,False,55.3539612483092,13.4213247978412,2.5,,984.2,True,1,1,False,False,False,False,,False,False,False,Course Lock,98.4,31,16.4,18,,,,,Calm,False,False,iOS,4.3.64,Zoomster 2,0M63G820H1V008,0K8HFB801103C3,0VELF7E10601P2,0P2AF8T534023X,216.3,2175.9,392.7,31.641516,9.171454,0,164,Zoomster 2,0M63G820H1V008,0K8HFB801103C3,0VELF7E10601P2,0P2AF8T534023X,,iOS,4.3.64,111C2313-DD9C-4E0D-B5A9-A6F7704ADE73,0M63G820H1V008,0K8HFB801103C3,,0VELF7E10601P2,0P2AF8T534023X,55.3539833491175,13.4211793411548,6.0009,,
9/29/2024,3:00:44.84 PM,0m 1.2s,1.2,55.3539681645683,13.4213261362237,0,0,,0,0,0,0,0,0,0,0,0,0,2.8,0.3,-9.8,350.2,,Auto Takeoff,Auto Fly,Takeoff (App Auto),20,5,True,,Mavic 2,False,False,,Smart,RC,True,True,False,,,True,,False,False,False,False,False,False,False,False,False,False,0,Follow Yaw,0,0,-14.7,345.3,False,False,False,False,False,True,,True,Needs Formatted,,,1024,1024,1024,1024,0,False,False,False,False,False,0,False,False,False,False,36,14.779,1025,2901,14.897,False,3.694,3.704,3.7,3.681,0.023,False,False,3.448,113.5,113.5,113.5,,1,,,10,5986.6,1535.04,,Idle,,25,,10,,0,Go Home,False,False,False,False,False,False,False,False,False,False,False,False,55.3539612483092,13.4213247978412,2.5,,984.2,True,1,1,False,False,False,False,,False,False,False,Course Lock,98.4,31,16.4,18,,,,,Calm,False,False,iOS,4.3.64,Zoomster 2,0M63G820H1V008,0K8HFB801103C3,0VELF7E10601P2,0P2AF8T534023X,216.3,2175.9,392.7,31.641516,9.171454,0,164,Zoomster 2,0M63G820H1V008,0K8HFB801103C3,0VELF7E10601P2,0P2AF8T534023X,,iOS,4.3.64,111C2313-DD9C-4E0D-B5A9-A6F7704ADE73,0M63G820H1V008,0K8HFB801103C3,,0VELF7E10601P2,0P2AF8T534023X,55.3539833491175,13.4211793411548,6.0009,,
9/29/2024,3:00:44.94 PM,0m 1.3s,1.3,55.3539681625882,13.4213261350784,0,0,,0,0,0,0,0,0,0,0,0,0,2.8,0.3,-9.7,350.3,,Auto Takeoff,Auto Fly,Takeoff (App Auto),20,5,True,,Mavic 2,False,False,,Smart,RC,True,True,False,,,True,,False,False,False,False,False,False,False,False,False,False,0,Follow Yaw,0,0,-14.7,345.3,False,False,False,False,False,True,,True,Needs Formatted,,,1024,1024,1024,1024,0,False,False,False,False,False,0,False,False,False,False,36,14.779,1025,2901,14.816,False,3.694,3.704,3.7,3.681,0.023,False,False,3.448,113.5,113.5,113.5,,1,,,10,6123.7,1570.18,,Idle,,25,,10,,0,Go Home,False,False,False,False,False,False,False,False,False,False,False,False,55.3539612483092,13.4213247978412,2.5,,984.2,True,1,1,False,False,False,False,,False,False,False,Course Lock,98.4,31,16.4,18,,,,,Calm,False,False,iOS,4.3.64,Zoomster 2,0M63G820H1V008,0K8HFB801103C3,0VELF7E10601P2,0P2AF8T534023X,216.3,2175.9,392.7,31.641516,9.171454,0,164,Zoomster 2,0M63G820H1V008,0K8HFB801103C3,0VELF7E10601P2,0P2AF8T534023X,,iOS,4.3.64,111C2313-DD9C-4E0D-B5A9-A6F7704ADE73,0M63G820H1V008,0K8HFB801103C3,,0VELF7E10601P2,0P2AF8T534023X,55.3539833491175,13.4211793411548,6.0009,,
9/29/2024,3:00:45.04 PM,0m 1.4s,1.4,55.3539681647139,13.421326136154,0,0,,0,0,0,0,0,0,0,0,0,0,2.8,0.3,-9.8,350.2,,Auto Takeoff,Auto Fly,Takeoff (App Auto),20,5,True,,Mavic 2,False,False,,Smart,RC,True,True,False,,,True,,False,False,False,False,False,False,False,False,False,False,0,Follow Yaw,0,0,-14.7,345.3,False,False,False,False,False,True,,True,Needs Formatted,,,1024,1024,1024,1024,0,False,False,False,False,False,0,False,False,False,False,36,14.779,1025,2901,14.816,False,3.694,3.704,3.7,3.681,0.023,False,False,3.448,113.5,113.5,113.5,,1,,,10,6123.7,1570.18,,Idle,,25,,10,,0,Go Home,False,False,False,False,False,False,False,False,False,False,False,False,55.3539612483092,13.4213247978412,2.5,,984.2,True,1,1,False,False,False,False,,False,False,False,Course Lock,98.4,31,16.4,18,,,,,Calm,False,False,iOS,4.3.64,Zoomster 2,0M63G820H1V008,0K8HFB801103C3,0VELF7E10601P2,0P2AF8T534023X,216.3,2175.9,392.7,31.641516,9.171454,0,164,Zoomster 2,0M63G820H1V008,0K8HFB801103C3,0VELF7E10601P2,0P2AF8T534023X,,iOS,4.3.64,111C2313-DD9C-4E0D-B5A9-A6F7704ADE73,0M63G820H1V008,0K8HFB801103C3,,0VELF7E10601P2,0P2AF8T534023X,55.3539833491175,13.4211793411548,6.0009,,
9/29/2024,3:00:45.14 PM,0m 1.5s,1.5,55.3539681633218,13.421326135798,0,0,,0,0,0,0,0,0,0,0,0,0,2.8,0.3,-9.8,350.2,,Auto Takeoff,Auto Fly,Takeoff (App Auto),20,5,True,,Mavic 2,False,False,,Smart,RC,True,True,False,,,True,,False,False,False,False,False,False,False,False,False,False,0,Follow Yaw,0,0,-14.7,345.3,False,False,False,False,False,True,,True,Needs Formatted,,,1024,1024,1024,1024,0,False,False,False,False,False,0,False,False,False,False,36,14.82,1023,2901,14.816,False,3.708,3.714,3.709,3.689,0.025,False,False,4.083,113.5,113.5,113.5,,1,,,10,6123.7,1570.18,,Idle,,25,,10,,0,Go Home,False,False,False,False,False,False,False,False,False,False,False,False,55.3539612483092,13.4213247978412,2.5,,984.2,True,1,1,False,False,False,False,,False,False,False,Course Lock,98.4,31,16.4,18,,,,,Calm,False,False,iOS,4.3.64,Zoomster 2,0M63G820H1V008,0K8HFB801103C3,0VELF7E10601P2,0P2AF8T534023X,216.3,2175.9,392.7,31.641516,9.171454,0,164,Zoomster 2,0M63G820H1V008,0K8HFB801103C3,0VELF7E10601P2,0P2AF8T534023X,,iOS,4.3.64,111C2313-DD9C-4E0D-B5A9-A6F7704ADE73,0M63G820H1V008,0K8HFB801103C3,,0VELF7E10601P2,0P2AF8T534023X,55.3539833491175,13.4211793411548,6.0009,,
9/29/2024,3:00:45.24 PM,0m 1.6s,1.6,55.3539681676,13.4213261400739,0,0,,0,0,0,0,0,0,0,0,0,0,2.8,0.3,-9.8,350.2,,Auto Takeoff,Auto Fly,Takeoff (App Auto),19,5,True,,Mavic 2,False,False,,Smart,RC,True,True,False,,,True,,False,False,False,False,False,False,False,False,False,False,0,Follow Yaw,0,0,-14.7,345.3,False,False,False,False,False,True,,True,Needs Formatted,,,1024,1024,1024,1024,0,False,False,False,False,False,0,False,False,False,False,36,14.82,1023,2901,14.816,False,3.708,3.714,3.709,3.689,0.025,False,False,4.083,113.5,113.5,113.5,,1,,,10,6123.7,1570.18,,Idle,,25,,10,,0,Go Home,False,False,False,False,False,False,False,False,False,False,False,False,55.3539612483092,13.4213247978412,2.5,,984.2,True,1,1,False,False,False,False,,False,False,False,Course Lock,98.4,31,16.4,18,,,,,Calm,False,False,iOS,4.3.64,Zoomster 2,0M63G820H1V008,0K8HFB801103C3,0VELF7E10601P2,0P2AF8T534023X,216.3,2175.9,392.7,31.641516,9.171454,0,164,Zoomster 2,0M63G820H1V008,0K8HFB801103C3,0VELF7E10601P2,0P2AF8T534023X,,iOS,4.3.64,111C2313-DD9C-4E0D-B5A9-A6F7704ADE73,0M63G820H1V008,0K8HFB801103C3,,0VELF7E10601P2,0P2AF8T534023X,55.3539833491175,13.4211793411548,6.0009,,
9/29/2024,3:00:45.34 PM,0m 1.7s,1.7,55.3539681694933,13.4213261556104,0,0,,0,0,0,0,0,0,0,0,0,0,1.8,0.4,-10,350,,Auto Takeoff,Auto Fly,Takeoff (App Auto),19,5,True,,Mavic 2,False,False,,Smart,RC,True,True,False,,,True,,False,False,False,False,False,False,False,False,False,False,0,Follow Yaw,0,0,-14.7,345.3,False,False,False,False,False,True,,True,Needs Formatted,,,1024,1024,1024,1024,0,False,False,False,False,False,0,False,False,False,False,36,14.82,1023,2901,14.816,False,3.708,3.714,3.709,3.689,0.025,False,False,4.083,113.5,113.5,113.5,,1,,,10,6123.7,1570.18,,Idle,,25,,10,,0,Go Home,False,False,False,False,False,False,False,False,False,False,False,False,55.3539612483092,13.4213247978412,2.5,,984.2,True,1,1,False,False,False,False,,False,False,False,Course Lock,98.4,31,16.4,18,,,,,Calm,False,False,iOS,4.3.64,Zoomster 2,0M63G820H1V008,0K8HFB801103C3,0VELF7E10601P2,0P2AF8T534023X,216.3,2175.9,392.7,31.641516,9.171454,0,164,Zoomster 2,0M63G820H1V008,0K8HFB801103C3,0VELF7E10601P2,0P2AF8T534023X,,iOS,4.3.64,111C2313-DD9C-4E0D-B5A9-A6F7704ADE73,0M63G820H1V008,0K8HFB801103C3,,0VELF7E10601P2,0P2AF8T534023X,55.3539833491175,13.4211793411548,6.0009,,
9/29/2024,3:00:45.44 PM,0m 1.8s,1.8,55.3539681835624,13.4213261942201,0,0,,0,0,0,0,0,0,0,0,0,0,-1.2,0,-10.4,349.6,,Auto Takeoff,Auto Fly,Takeoff (App Auto),19,5,True,,Mavic 2,False,False,,Smart,RC,True,True,False,,,True,,False,False,False,False,False,False,False,False,False,False,0,Follow Yaw,0,0,-14.7,345.3,False,False,False,False,False,True,,True,Needs Formatted,,,1024,1024,1024,1024,0,False,False,False,False,False,0,False,False,False,False,36,14.82,1023,2901,14.816,False,3.708,3.714,3.709,3.689,0.025,False,False,4.083,113.5,113.5,113.5,,1,,,10,6123.7,1570.18,,Idle,,25,,10,,0,Go Home,False,False,False,False,False,False,False,False,False,False,False,False,55.3539612483092,13.4213247978412,2.5,,984.2,True,1,1,False,False,False,False,,False,False,False,Course Lock,98.4,31,16.4,18,,,,,Calm,False,False,iOS,4.3.64,Zoomster 2,0M63G820H1V008,0K8HFB801103C3,0VELF7E10601P2,0P2AF8T534023X,216.3,2175.9,392.7,31.641516,9.171454,0,164,Zoomster 2,0M63G820H1V008,0K8HFB801103C3,0VELF7E10601P2,0P2AF8T534023X,,iOS,4.3.64,111C2313-DD9C-4E0D-B5A9-A6F7704ADE73,0M63G820H1V008,0K8HFB801103C3,,0VELF7E10601P2,0P2AF8T534023X,55.3539540239014,13.4211526313343,6.0009,,
9/29/2024,3:00:45.54 PM,0m 1.9s,1.9,55.3539682189517,13.421326279055,0,0,,0,0,0,0,0,0,0,0,0,0,-3,-0.6,-10.6,349.4,,Auto Takeoff,Auto Fly,Takeoff (App Auto),19,5,True,,Mavic 2,False,False,,Smart,RC,True,True,False,,,True,,False,False,False,False,False,False,False,False,False,False,0,Follow Yaw,0,0,-14.8,345.2,False,False,False,False,False,True,,True,Needs Formatted,,,1024,1024,1024,1024,0,False,False,False,False,False,0,False,False,False,False,36,14.82,1023,2901,14.816,False,3.708,3.714,3.709,3.689,0.025,False,False,4.083,113.5,113.5,113.5,,1,,,10,6123.7,1570.18,,Idle,,25,,10,,0,Go Home,False,False,False,False,False,False,False,False,False,False,False,False,55.3539612483092,13.4213247978412,2.5,,984.2,True,1,1,False,False,False,False,,False,False,False,Course Lock,98.4,31,16.4,18,,,,,Calm,False,False,iOS,4.3.64,Zoomster 2,0M63G820H1V008,0K8HFB801103C3,0VELF7E10601P2,0P2AF8T534023X,216.3,2175.9,392.7,31.641516,9.171454,0,164,Zoomster 2,0M63G820H1V008,0K8HFB801103C3,0VELF7E10601P2,0P2AF8T534023X,,iOS,4.3.64,111C2313-DD9C-4E0D-B5A9-A6F7704ADE73,0M63G820H1V008,0K8HFB801103C3,,0VELF7E10601P2,0P2AF8T534023X,55.3539540239014,13.4211526313343,6.0009,,
9/29/2024,3:00:45.64 PM,0m 2.0s,2.0,55.3539682998136,13.4213263933845,0,0,,0,0,0.223694,0.223694,0.223694,0.223694,0,0,-0.223694,0,-3.4,-0.8,-10.1,349.9,38.7,Auto Takeoff,Auto Fly,Takeoff (App Auto),19,5,True,,Mavic 2,False,False,,Smart,RC,False,True,False,,,True,,False,False,False,False,False,False,False,False,False,False,0,Follow Yaw,0,0,-14.8,345.2,False,False,False,False,False,True,,True,Needs Formatted,,,1024,1024,1024,1024,0,False,False,False,False,False,0,False,False,False,False,36,14.82,1023,2901,14.816,False,3.708,3.714,3.709,3.689,0.025,False,False,4.083,113.5,113.5,113.5,,1,,,10,6123.7,1570.18,,Idle,,25,,10,,0,Go Home,False,False,False,False,False,False,False,False,False,False,False,False,55.3539612483092,13.4213247978412,2.5,,984.2,True,1,1,False,False,False,False,,False,False,False,Course Lock,98.4,31,16.4,18,,,,,Calm,False,False,iOS,4.3.64,Zoomster 2,0M63G820H1V008,0K8HFB801103C3,0VELF7E10601P2,0P2AF8T534023X,216.3,2175.9,392.7,31.641516,9.171454,0,164,Zoomster 2,0M63G820H1V008,0K8HFB801103C3,0VELF7E10601P2,0P2AF8T534023X,,iOS,4.3.64,111C2313-DD9C-4E0D-B5A9-A6F7704ADE73,0M63G820H1V008,0K8HFB801103C3,,0VELF7E10601P2,0P2AF8T534023X,55.3539540239014,13.4211526313343,6.0009,,
9/29/2024,3:00:45.74 PM,0m 2.1s,2.1,55.3539684337728,13.4213265314821,0,0,,0,0.1,0.223694,0.223694,0.223694,0.223694,0,0,-0.671082,0,-0.9,-1,-10.1,349.9,30.3,Auto Takeoff,Auto Fly,Takeoff (App Auto),19,5,True,,Mavic 2,False,False,,Smart,RC,False,True,False,,,True,,False,False,False,False,False,False,False,False,False,False,0,Follow Yaw,0,0,-14.8,345.2,False,False,False,False,False,True,,True,Needs Formatted,,,1024,1024,1024,1024,0,False,False,False,False,False,0,False,False,False,False,36,14.82,1023,2901,14.816,False,3.708,3.714,3.709,3.689,0.025,False,False,4.083,113.5,113.5,113.5,,1,,,10,6123.7,1570.18,,Idle,,25,,10,,0,Go Home,False,False,False,False,False,False,False,False,False,False,False,False,55.3539612483092,13.4213247978412,2.6,,984.2,True,1,1,False,False,False,False,,False,False,False,Course Lock,98.4,31,16.4,18,,,,,Calm,False,False,iOS,4.3.64,Zoomster 2,0M63G820H1V008,0K8HFB801103C3,0VELF7E10601P2,0P2AF8T534023X,216.3,2175.9,392.7,31.641516,9.171454,0,164,Zoomster 2,0M63G820H1V008,0K8HFB801103C3,0VELF7E10601P2,0P2AF8T534023X,,iOS,4.3.64,111C2313-DD9C-4E0D-B5A9-A6F7704ADE73,0M63G820H1V008,0K8HFB801103C3,,0VELF7E10601P2,0P2AF8T534023X,55.3539540239014,13.4211526313343,6.0009,,
9/29/2024,3:00:45.84 PM,0m 2.2s,2.2,55.3539685346279,13.4213267530527,0,0,,0,0.2,0.316351,0.316351,0.223694,0.223694,0.223694,0.223694,-0.894776,0,1.1,-0.8,-10.2,349.8,51.3,Auto Takeoff,Auto Fly,Takeoff (App Auto),19,5,True,,Mavic 2,False,False,,Smart,RC,False,True,False,,,True,,False,False,False,False,False,False,False,False,False,False,0,Follow Yaw,0,0,-14.8,345.2,False,False,False,False,False,True,,True,Needs Formatted,,,1024,1024,1024,1024,0,False,False,False,False,False,0,False,False,False,False,36,14.82,1023,2901,14.816,False,3.708,3.714,3.709,3.689,0.025,False,False,4.083,113.5,113.5,113.5,,1,,,10,6123.7,1570.18,,Idle,,25,,10,,0,Go Home,False,False,False,False,False,False,False,False,False,False,False,False,55.3539612483092,13.4213247978412,2.6,,984.2,True,1,1,False,False,False,False,,False,False,False,Course Lock,98.4,31,16.4,18,,,,,Calm,False,False,iOS,4.3.64,Zoomster 2,0M63G820H1V008,0K8HFB801103C3,0VELF7E10601P2,0P2AF8T534023X,216.3,2175.9,392.7,31.641516,9.171454,0,164,Zoomster 2,0M63G820H1V008,0K8HFB801103C3,0VELF7E10601P2,0P2AF8T534023X,,iOS,4.3.64,111C2313-DD9C-4E0D-B5A9-A6F7704ADE73,0M63G820H1V008,0K8HFB801103C3,,0VELF7E10601P2,0P2AF8T534023X,55.3539540239014,13.4211526313343,6.0009,,
9/29/2024,3:00:45.94 PM,0m 2.3s,2.3,55.3539686595037,13.4213269808452,0.3,0.3,,0,0.2,0.316351,0.316351,0.223694,0.223694,0.223694,0.223694,-1.11847,0,1.9,-1,-10.4,349.6,46.0,Auto Takeoff,Auto Fly,Takeoff (App Auto),19,5,True,,Mavic 2,False,False,,Smart,RC,False,True,False,,,True,,False,False,False,False,False,False,False,False,False,False,0,Follow Yaw,0,0,-14.8,345.2,False,False,False,False,False,True,,True,Needs Formatted,,,1024,1024,1024,1024,0,False,False,False,False,False,0,False,False,False,False,36,14.82,1023,2901,14.757,False,3.708,3.714,3.709,3.689,0.025,False,False,4.083,113.5,113.5,113.5,,,,,10,6698.6,1717.60,,Idle,,25,,10,,0,Go Home,False,False,False,False,False,False,False,False,False,False,False,False,55.3539682944175,13.4213263867747,0.1,,984.2,True,1,1,False,False,False,False,,False,False,False,Course Lock,98.4,31,16.4,18,,,,,Calm,False,False,iOS,4.3.64,Zoomster 2,0M63G820H1V008,0K8HFB801103C3,0VELF7E10601P2,0P2AF8T534023X,216.3,2175.9,392.7,31.641516,9.171454,0,164,Zoomster 2,0M63G820H1V008,0K8HFB801103C3,0VELF7E10601P2,0P2AF8T534023X,,iOS,4.3.64,111C2313-DD9C-4E0D-B5A9-A6F7704ADE73,0M63G820H1V008,0K8HFB801103C3,,0VELF7E10601P2,0P2AF8T534023X,55.3539540239014,13.4211526313343,6.0009,Home Point Updated.,
9/29/2024,3:00:46.04 PM,0m 2.4s,2.4,55.3539686651429,13.421327212874,0.3,0.3,0.6,0,0.3,0.447388,0.447388,0,0.223694,0.447388,0.447388,-1.11847,0,1.5,-1.8,-10.5,349.5,87.5,Auto Takeoff,Auto Fly,Takeoff (App Auto),19,5,True,,Mavic 2,True,False,,Smart,RC,False,True,False,,,True,,False,False,False,False,False,False,False,False,False,False,0,Follow Yaw,0,0,-14.8,345.2,False,False,False,False,False,True,,True,Needs Formatted,,,1024,1024,1024,1024,0,False,False,False,False,False,0,False,False,False,False,36,14.82,1023,2901,14.757,False,3.708,3.714,3.709,3.689,0.025,False,False,4.083,113.5,113.5,113.5,,,,,10,6698.6,1717.60,,Idle,,25,,10,,0,Go Home,False,False,False,False,False,False,False,False,False,False,False,False,55.3539682944175,13.4213263867747,0.2,,984.2,True,1,1,False,False,False,False,,False,False,False,Course Lock,98.4,31,16.4,18,,,,,Calm,False,False,iOS,4.3.64,Zoomster 2,0M63G820H1V008,0K8HFB801103C3,0VELF7E10601P2,0P2AF8T534023X,216.3,2175.9,392.7,31.641516,9.171454,0,164,Zoomster 2,0M63G820H1V008,0K8HFB801103C3,0VELF7E10601P2,0P2AF8T534023X,,iOS,4.3.64,111C2313-DD9C-4E0D-B5A9-A6F7704ADE73,0M63G820H1V008,0K8HFB801103C3,,0VELF7E10601P2,0P2AF8T534023X,55.3539540239014,13.4211526313343,6.0009,Home Point Recorded. RTH Altitude:  30m.,
9/29/2024,3:00:46.14 PM,0m 2.5s,2.5,55.3539687025529,13.4213275691234,0.6,0.6,0.6,1,0.4,0.447388,0.447388,0,0.223694,0.447388,0.447388,-1.11847,0,0.5,-2.4,-10.5,349.5,79.5,Auto Takeoff,Auto Fly,Takeoff (App Auto),19,5,True,,Mavic 2,True,False,,Smart,RC,False,True,False,,,True,,False,False,False,False,False,False,False,False,False,False,0,Follow Yaw,0,0,-14.8,345.2,False,False,False,False,False,True,,True,Needs Formatted,,,1024,1024,1024,1024,0,False,False,False,False,False,0,False,False,False,False,36,14.546,1022,2901,14.757,False,3.634,3.652,3.645,3.616,0.036,False,False,7.367,113.5,113.5,113.5,,,,,10,6698.6,1717.60,,Idle,,25,,10,,0,Go Home,False,False,False,False,False,False,False,False,False,False,False,False,55.3539682944175,13.4213263867747,0.2,,984.2,True,1,1,False,False,False,False,,False,False,False,Course Lock,98.4,31,16.4,18,,,,,Calm,False,False,iOS,4.3.64,Zoomster 2,0M63G820H1V008,0K8HFB801103C3,0VELF7E10601P2,0P2AF8T534023X,216.3,2175.9,392.7,31.641516,9.171454,0,164,Zoomster 2,0M63G820H1V008,0K8HFB801103C3,0VELF7E10601P2,0P2AF8T534023X,,iOS,4.3.64,111C2313-DD9C-4E0D-B5A9-A6F7704ADE73,0M63G820H1V008,0K8HFB801103C3,,0VELF7E10601P2,0P2AF8T534023X,55.3539540239014,13.4211526313343,6.0009,,
9/29/2024,3:00:46.24 PM,0m 2.6s,2.6,55.3539686217831,13.4213280607541,0.6,0.6,0.9,1,0.5,0.447388,0.447388,0,0.223694,0.447388,0.447388,-1.11847,0,-0.4,-3.4,-10.4,349.6,106.1,Auto Takeoff,Auto Fly,Takeoff (App Auto),19,5,True,,Mavic 2,True,False,,Smart,RC,False,True,False,,,True,,False,False,False,False,False,False,False,False,False,False,0,Follow Yaw,0,0,-14.8,345.2,False,False,False,False,False,True,,True,Needs Formatted,,,1024,1024,1024,1024,0,False,False,False,False,False,0,False,False,False,False,36,14.546,1022,2901,14.757,False,3.634,3.652,3.645,3.616,0.036,False,False,7.367,113.5,113.5,113.5,,,,,10,6698.6,1717.60,,Idle,,25,,10,,0,Go Home,False,False,False,False,False,False,False,False,False,False,False,False,55.3539682944175,13.4213263867747,0.3,,984.2,True,1,1,False,False,False,False,,False,False,False,Course Lock,98.4,31,16.4,18,,,,,Calm,False,False,iOS,4.3.64,Zoomster 2,0M63G820H1V008,0K8HFB801103C3,0VELF7E10601P2,0P2AF8T534023X,216.3,2175.9,392.7,31.641516,9.171454,0,164,Zoomster 2,0M63G820H1V008,0K8HFB801103C3,0VELF7E10601P2,0P2AF8T534023X,,iOS,4.3.64,111C2313-DD9C-4E0D-B5A9-A6F7704ADE73,0M63G820H1V008,0K8HFB801103C3,,0VELF7E10601P2,0P2AF8T534023X,55.3539540239014,13.4211526313343,6.0009,,
9/29/2024,3:00:46.34 PM,0m 2.7s,2.7,55.3539686070039,13.4213284879651,0.9,0.9,1.3,1,0.5,0.447388,0.447388,0,0.223694,0.447388,0.447388,-0.894776,0,-1,-3.8,-10.3,349.7,93.4,Auto Takeoff,Auto Fly,Takeoff (App Auto),19,5,True,,Mavic 2,True,False,,Smart,RC,False,True,False,,,True,,False,False,False,False,False,False,False,False,False,False,0,Follow Yaw,0,0,-14.8,345.2,False,False,False,False,False,True,,True,Needs Formatted,,,1024,1024,1024,1024,0,False,False,False,False,False,0,False,False,False,False,36,14.546,1022,2901,14.757,False,3.634,3.652,3.645,3.616,0.036,False,False,7.367,113.5,113.5,113.5,,,,,10,6698.6,1717.60,,Idle,,25,,10,,0,Go Home,False,False,False,False,False,False,False,False,False,False,False,False,55.3539682944175,13.4213263867747,0.4,,984.2,True,1,1,False,False,False,False,,False,False,False,Course Lock,98.4,31,16.4,18,,,,,Calm,False,False,iOS,4.3.64,Zoomster 2,0M63G820H1V008,0K8HFB801103C3,0VELF7E10601P2,0P2AF8T534023X,216.3,2175.9,392.7,31.641516,9.171454,0,164,Zoomster 2,0M63G820H1V008,0K8HFB801103C3,0VELF7E10601P2,0P2AF8T534023X,,iOS,4.3.64,111C2313-DD9C-4E0D-B5A9-A6F7704ADE73,0M63G820H1V008,0K8HFB801103C3,,0VELF7E10601P2,0P2AF8T534023X,55.3539540239014,13.4211526313343,6.0009,,
9/29/2024,3:00:46.44 PM,0m 2.8s,2.8,55.3539686624453,13.4213289367706,1.3,1.3,1.3,1,0.6,0.447388,0.447388,0,0.223694,0.447388,0.447388,-0.894776,0,-1.2,-4.1,-10.3,349.7,77.7,Auto Takeoff,Auto Fly,Takeoff (App Auto),19,5,True,,Mavic 2,True,False,,Smart,RC,False,True,False,,,True,,False,False,False,False,False,False,False,False,False,False,0,Follow Yaw,0,0,-14.8,345.2,False,False,False,False,False,True,,True,Needs Formatted,,,1024,1024,1044,1024,0,False,False,False,False,False,0,False,False,False,False,36,14.546,1022,2901,14.757,False,3.634,3.652,3.645,3.616,0.036,False,False,7.367,113.5,113.5,113.5,,,,,10,6698.6,1717.60,,Idle,,25,,10,,0,Go Home,False,False,False,False,False,False,False,False,False,False,False,False,55.3539682944175,13.4213263867747,0.5,,984.2,True,1,1,False,False,False,False,,False,False,False,Course Lock,98.4,31,16.4,18,,,,,Calm,False,False,iOS,4.3.64,Zoomster 2,0M63G820H1V008,0K8HFB801103C3,0VELF7E10601P2,0P2AF8T534023X,216.3,2175.9,392.7,31.641516,9.171454,0,164,Zoomster 2,0M63G820H1V008,0K8HFB801103C3,0VELF7E10601P2,0P2AF8T534023X,,iOS,4.3.64,111C2313-DD9C-4E0D-B5A9-A6F7704ADE73,0M63G820H1V008,0K8HFB801103C3,,0VELF7E10601P2,0P2AF8T534023X,55.3539540239014,13.4211526313343,6.0009,,
9/29/2024,3:00:46.54 PM,0m 2.9s,2.9,55.3539686424638,13.4213293540716,1.3,1.3,1.3,1,0.7,0.447388,0.447388,0,0.223694,0.447388,0.447388,-1.11847,0,-1.1,-4.5,-10.3,349.7,94.8,Auto Takeoff,Auto Fly,Takeoff (App Auto),19,5,True,,Mavic 2,True,False,,Smart,RC,False,True,False,,,True,,False,False,False,False,False,False,False,False,False,False,0,Follow Yaw,0,0,-14.9,345.1,False,False,False,False,False,True,,True,Needs Formatted,,,1024,1024,1606,1024,0,False,False,False,False,False,0,False,False,False,False,36,14.546,1022,2901,14.757,False,3.634,3.652,3.645,3.616,0.036,False,False,7.367,113.5,113.5,113.5,,,,,10,6698.6,1717.60,,Idle,,25,,10,,0,Go Home,False,False,False,False,False,False,False,False,False,False,False,False,55.3539682944175,13.4213263867747,0.6,,984.2,True,1,1,False,False,False,False,,False,False,False,Course Lock,98.4,31,16.4,18,,,,,Calm,False,False,iOS,4.3.64,Zoomster 2,0M63G820H1V008,0K8HFB801103C3,0VELF7E10601P2,0P2AF8T534023X,216.3,2175.9,392.7,31.641516,9.171454,0,164,Zoomster 2,0M63G820H1V008,0K8HFB801103C3,0VELF7E10601P2,0P2AF8T534023X,,iOS,4.3.64,111C2313-DD9C-4E0D-B5A9-A6F7704ADE73,0M63G820H1V008,0K8HFB801103C3,,0VELF7E10601P2,0P2AF8T534023X,55.3539540239014,13.4211526313343,6.0009,,
9/29/2024,3:00:46.64 PM,0m 3.0s,3.0,55.3539687261389,13.42132975234,1.6,1.6,1.6,2,0.8,0.447388,0.447388,0,0.223694,0.447388,0.447388,-1.11847,0,-1.2,-4.7,-10.4,349.6,69.7,Auto Takeoff,Auto Fly,Takeoff (App Auto),19,5,True,,Mavic 2,True,False,,Smart,RC,False,True,False,,,True,,False,False,False,False,False,False,False,False,False,False,0,Follow Yaw,0,0,-14.9,345.1,False,False,False,False,False,True,,True,Needs Formatted,,,1024,1024,1684,1024,0,False,False,False,False,False,0,False,False,False,False,36,14.546,1022,2901,14.757,False,3.634,3.652,3.645,3.616,0.036,False,False,7.367,113.5,113.5,113.5,,,,,10,6698.6,1717.60,,Idle,,25,,10,,0,Go Home,False,False,False,False,False,False,False,False,False,False,False,False,55.3539682944175,13.4213263867747,0.7,,984.2,True,1,1,False,False,False,False,,False,False,False,Course Lock,98.4,31,16.4,18,,,,,Calm,False,False,iOS,4.3.64,Zoomster 2,0M63G820H1V008,0K8HFB801103C3,0VELF7E10601P2,0P2AF8T534023X,216.3,2175.9,392.7,31.641516,9.171454,0,164,Zoomster 2,0M63G820H1V008,0K8HFB801103C3,0VELF7E10601P2,0P2AF8T534023X,,iOS,4.3.64,111C2313-DD9C-4E0D-B5A9-A6F7704ADE73,0M63G820H1V008,0K8HFB801103C3,,0VELF7E10601P2,0P2AF8T534023X,55.3539540239014,13.4211526313343,6.0009,,
9/29/2024,3:00:46.74 PM,0m 3.1s,3.1,55.353968692387,13.4213301380386,1.6,1.6,1.9,2,0.9,0.447388,0.447388,0,0.223694,0.447388,0.447388,-1.11847,0,-1.3,-4.3,-10.4,349.6,98.7,Auto Takeoff,Auto Fly,Takeoff (App Auto),19,5,True,,Mavic 2,True,False,,Smart,RC,False,True,False,,,True,,False,False,False,False,False,False,False,False,False,False,0,Follow Yaw,0,0,-14.9,345.1,False,False,False,False,False,True,,True,Needs Formatted,,,1024,1024,1684,1024,0,False,False,False,False,False,0,False,False,False,False,36,14.546,1022,2901,14.757,False,3.634,3.652,3.645,3.616,0.036,False,False,7.367,113.5,113.5,113.5,,,,,10,6698.6,1717.60,,Idle,,25,,10,,0,Go Home,False,False,False,False,False,False,False,False,False,False,False,False,55.3539682944175,13.4213263867747,0.7,,984.2,True,1,1,False,False,False,False,,False,False,False,Course Lock,98.4,31,16.4,18,,,,,Calm,False,False,iOS,4.3.64,Zoomster 2,0M63G820H1V008,0K8HFB801103C3,0VELF7E10601P2,0P2AF8T534023X,216.3,2175.9,392.7,31.641516,9.171454,0,164,Zoomster 2,0M63G820H1V008,0K8HFB801103C3,0VELF7E10601P2,0P2AF8T534023X,,iOS,4.3.64,111C2313-DD9C-4E0D-B5A9-A6F7704ADE73,0M63G820H1V008,0K8HFB801103C3,,0VELF7E10601P2,0P2AF8T534023X,55.3539540239014,13.4211526313343,6.0009,,
9/29/2024,3:00:46.84 PM,0m 3.2s,3.2,55.3539685127722,13.4213302791971,1.9,1.9,1.9,2,1.0,0.447388,0.447388,0,0.223694,0.447388,0.447388,-1.789552,0,-1.7,-3.9,-10.3,349.7,155.9,Auto Takeoff,Auto Fly,Takeoff (App Auto),19,5,True,,Mavic 2,True,False,,Smart,RC,False,True,False,,,True,,False,False,False,False,False,False,False,False,False,False,0,Follow Yaw,0,0,-14.9,345.1,False,False,False,False,False,True,,True,Needs Formatted,,,1024,1024,1684,1024,0,False,False,False,False,False,0,False,False,False,False,36,14.546,1022,2901,14.757,False,3.634,3.652,3.645,3.616,0.036,False,False,7.367,113.5,113.5,113.5,,,,,10,6698.6,1717.60,,Idle,,25,,10,,0,Go Home,False,False,False,False,False,False,False,False,False,False,False,False,55.3539682944175,13.4213263867747,0.8,,984.2,True,1,1,False,False,False,False,,False,False,False,Course Lock,98.4,31,16.4,18,,,,,Calm,False,False,iOS,4.3.64,Zoomster 2,0M63G820H1V008,0K8HFB801103C3,0VELF7E10601P2,0P2AF8T534023X,216.3,2175.9,392.7,31.641516,9.171454,0,164,Zoomster 2,0M63G820H1V008,0K8HFB801103C3,0VELF7E10601P2,0P2AF8T534023X,,iOS,4.3.64,111C2313-DD9C-4E0D-B5A9-A6F7704ADE73,0M63G820H1V008,0K8HFB801103C3,,0VELF7E10601P2,0P2AF8T534023X,55.3539540239014,13.4211526313343,6.0009,,
9/29/2024,3:00:46.94 PM,0m 3.3s,3.3,55.3539684538879,13.4213305993459,2.2,2.2,2.2,2,1.0,0.447388,0.447388,0,0.223694,0.447388,0.447388,-2.460634,0,-1.9,-3.5,-10.3,349.7,107.9,Auto Takeoff,Auto Fly,Takeoff (App Auto),19,5,True,,Mavic 2,True,False,,Smart,RC,False,True,False,,,True,,False,False,False,False,False,False,False,False,False,False,0,Follow Yaw,0,0,-14.9,345.1,False,False,False,False,False,True,,True,Needs Formatted,,,1024,1024,1684,1024,0,False,False,False,False,False,0,False,False,False,False,36,14.546,1022,2901,14.463,False,3.634,3.652,3.645,3.616,0.036,False,False,7.367,113.5,113.5,113.5,,,,,10,8015.9,2055.37,,Idle,,25,,10,,0,Go Home,False,False,False,False,False,False,False,False,False,False,False,False,55.3539682944175,13.4213263867747,0.8,,984.2,True,1,1,False,False,False,False,,False,False,False,Course Lock,98.4,31,16.4,18,,,,,Calm,False,False,iOS,4.3.64,Zoomster 2,0M63G820H1V008,0K8HFB801103C3,0VELF7E10601P2,0P2AF8T534023X,216.3,2175.9,392.7,31.641516,9.171454,0,164,Zoomster 2,0M63G820H1V008,0K8HFB801103C3,0VELF7E10601P2,0P2AF8T534023X,,iOS,4.3.64,111C2313-DD9C-4E0D-B5A9-A6F7704ADE73,0M63G820H1V008,0K8HFB801103C3,,0VELF7E10601P2,0P2AF8T534023X,55.3539540239014,13.4211526313343,6.0009,,
9/29/2024,3:00:47.04 PM,0m 3.4s,3.4,55.3539686503787,13.4213309395934,2.6,2.6,2.9,3,1.1,0.223694,0.447388,0,0.223694,0.223694,0.447388,-3.131716,0,-1.9,-3.7,-10.4,349.6,44.5,Auto Takeoff,Auto Fly,Takeoff (App Auto),19,5,True,,Mavic 2,True,False,,Smart,RC,False,True,False,,,True,,False,False,False,False,False,False,False,False,False,False,0,Follow Yaw,0,0,-14.9,345.1,False,False,False,False,False,True,,True,Needs Formatted,,,1024,1024,1684,1024,0,False,False,False,False,False,0,False,False,False,False,36,14.546,1022,2901,14.463,False,3.634,3.652,3.645,3.616,0.036,False,False,7.367,113.5,113.5,113.5,,,,,10,8015.9,2055.37,,Idle,,25,,10,,0,Go Home,False,False,False,False,False,False,False,False,False,False,False,False,55.3539682944175,13.4213263867747,0.9,,984.2,True,1,1,False,False,False,False,,False,False,False,Course Lock,98.4,31,16.4,18,,,,,Calm,False,False,iOS,4.3.64,Zoomster 2,0M63G820H1V008,0K8HFB801103C3,0VELF7E10601P2,0P2AF8T534023X,216.3,2175.9,392.7,31.641516,9.171454,0,164,Zoomster 2,0M63G820H1V008,0K8HFB801103C3,0VELF7E10601P2,0P2AF8T534023X,,iOS,4.3.64,111C2313-DD9C-4E0D-B5A9-A6F7704ADE73,0M63G820H1V008,0K8HFB801103C3,,0VELF7E10601P2,0P2AF8T534023X,55.3539540239014,13.4211526313343,6.0009,,
9/29/2024,3:00:47.14 PM,0m 3.5s,3.5,55.3539686364809,13.4213312285637,3.2,3.2,3.6,3,1.2,0.223694,0.447388,0,0.223694,0.223694,0.447388,-4.026492,0,-1.9,-3.5,-10.4,349.6,94.8,Auto Takeoff,Auto Fly,,19,5,True,,Mavic 2,True,False,,Smart,RC,False,True,False,,,True,,False,False,False,False,False,False,False,False,False,False,0,Follow Yaw,0,0,-14.9,345.1,False,False,False,False,False,True,,True,Needs Formatted,,,1024,1024,1631,1024,0,False,False,False,False,False,0,False,False,False,False,36,14.546,1022,2901,14.463,False,3.634,3.652,3.645,3.616,0.036,False,False,7.367,113.5,113.5,113.5,,,,,10,8015.9,2055.37,,Idle,,25,,10,,0,Go Home,False,False,False,False,False,False,False,False,False,False,False,False,55.3539682944175,13.4213263867747,1.0,,984.2,True,1,1,False,False,False,False,,False,False,False,Course Lock,98.4,31,16.4,18,,,,,Calm,False,False,iOS,4.3.64,Zoomster 2,0M63G820H1V008,0K8HFB801103C3,0VELF7E10601P2,0P2AF8T534023X,216.3,2175.9,392.7,31.641516,9.171454,0,164,Zoomster 2,0M63G820H1V008,0K8HFB801103C3,0VELF7E10601P2,0P2AF8T534023X,,iOS,4.3.64,111C2313-DD9C-4E0D-B5A9-A6F7704ADE73,0M63G820H1V008,0K8HFB801103C3,,0VELF7E10601P2,0P2AF8T534023X,55.3539540239014,13.4211526313343,6.0009,,
9/29/2024,3:00:47.24 PM,0m 3.6s,3.6,55.353968443796,13.4213316657019,3.9,3.9,4.2,4,1.3,0.223694,0.447388,0,0.223694,0.223694,0.447388,-4.921268,0,-2,-3.4,-10.4,349.6,127.7,P-GPS,Auto Fly,,19,5,True,,Mavic 2,True,False,,Smart,RC,False,True,False,,,True,,False,False,False,False,False,False,False,False,False,False,0,Follow Yaw,0,0,-14.9,345.1,False,False,False,False,False,True,,True,Needs Formatted,,,1024,1024,1024,1024,0,False,False,False,False,False,0,False,False,False,False,36,14.168,1019,2901,14.463,False,3.548,3.567,3.551,3.502,0.065,False,False,11.488,113.5,113.5,113.5,,,,,10,8015.9,2055.37,,Idle,,25,,10,,0,Go Home,False,False,False,False,False,False,False,False,False,False,False,False,55.3539682944175,13.4213263867747,1.0,,984.2,True,1,1,False,False,False,False,,False,False,False,Course Lock,98.4,31,16.4,18,,,,,Calm,False,False,iOS,4.3.64,Zoomster 2,0M63G820H1V008,0K8HFB801103C3,0VELF7E10601P2,0P2AF8T534023X,216.3,2175.9,392.7,31.641516,9.171454,0,164,Zoomster 2,0M63G820H1V008,0K8HFB801103C3,0VELF7E10601P2,0P2AF8T534023X,,iOS,4.3.64,111C2313-DD9C-4E0D-B5A9-A6F7704ADE73,0M63G820H1V008,0K8HFB801103C3,,0VELF7E10601P2,0P2AF8T534023X,55.3539540239014,13.4211526313343,6.0009,Flight mode changed to P-GPS.,
9/29/2024,3:00:47.34 PM,0m 3.7s,3.7,55.3539684567451,13.4213319562975,4.5,4.5,4.9,5,1.4,0.223694,0.447388,0,0.223694,0.223694,0.447388,-5.816044,0,-1.8,-4.3,-10.5,349.5,85.5,P-GPS,Auto Fly,,19,5,True,,Mavic 2,True,False,,Smart,RC,False,True,False,,,True,,False,False,False,False,False,False,False,False,False,False,0,Follow Yaw,0,0,-14.9,345.1,False,False,False,False,False,True,,True,Needs Formatted,,,1024,1024,1024,1024,0,False,False,False,False,False,0,False,False,False,False,36,14.168,1019,2901,14.463,False,3.548,3.567,3.551,3.502,0.065,False,False,11.488,113.5,113.5,113.5,,,,,10,8015.9,2055.37,,Idle,,25,,10,,0,Go Home,False,False,False,False,False,False,False,False,False,False,False,False,55.3539682944175,13.4213263867747,1.1,,984.2,True,1,1,False,False,False,False,,False,False,False,Course Lock,98.4,31,16.4,18,,,,,Calm,False,False,iOS,4.3.64,Zoomster 2,0M63G820H1V008,0K8HFB801103C3,0VELF7E10601P2,0P2AF8T534023X,216.3,2175.9,392.7,31.641516,9.171454,0,164,Zoomster 2,0M63G820H1V008,0K8HFB801103C3,0VELF7E10601P2,0P2AF8T534023X,,iOS,4.3.64,111C2313-DD9C-4E0D-B5A9-A6F7704ADE73,0M63G820H1V008,0K8HFB801103C3,,0VELF7E10601P2,0P2AF8T534023X,55.3539540239014,13.4211526313343,6.0009,,
9/29/2024,3:00:47.44 PM,0m 3.8s,3.8,55.3539684930778,13.4213320438788,5.5,5.5,5.9,6,1.4,0.223694,0.447388,0,0.223694,0.223694,0.447388,-5.816044,0,-0.7,-5.1,-10.3,349.7,53.8,P-GPS,Auto Fly,,20,5,True,,Mavic 2,True,False,,Smart,RC,False,True,False,,,True,,False,False,False,False,False,False,False,False,False,False,0,Follow Yaw,0,0,-14.9,345.1,False,False,False,False,False,True,,True,Needs Formatted,,,1024,1024,1024,1024,0,False,False,False,False,False,0,False,False,False,False,36,14.168,1019,2901,14.463,False,3.548,3.567,3.551,3.502,0.065,False,False,11.488,113.5,113.5,113.5,,,,,10,8015.9,2055.37,,Idle,,25,,10,,0,Go Home,False,False,False,False,False,False,False,False,False,False,False,False,55.3539682944175,13.4213263867747,1.1,,984.2,True,1,1,False,False,False,False,,False,False,False,Course Lock,98.4,31,16.4,18,,,,,Calm,False,False,iOS,4.3.64,Zoomster 2,0M63G820H1V008,0K8HFB801103C3,0VELF7E10601P2,0P2AF8T534023X,216.3,2175.9,392.7,31.641516,9.171454,0,164,Zoomster 2,0M63G820H1V008,0K8HFB801103C3,0VELF7E10601P2,0P2AF8T534023X,,iOS,4.3.64,111C2313-DD9C-4E0D-B5A9-A6F7704ADE73,0M63G820H1V008,0K8HFB801103C3,,0VELF7E10601P2,0P2AF8T534023X,55.3539526448148,13.4211419919757,8.0012,,
9/29/2024,3:00:47.54 PM,0m 3.9s,3.9,55.353968575303,13.4213322854409,6.5,6.5,6.8,7,1.5,0.223694,0.447388,0,0.223694,0.223694,0.447388,-5.368656,0,0.4,-5.5,-10.4,349.6,59.0,P-GPS,Auto Fly,,20,5,True,,Mavic 2,True,False,,Smart,RC,False,True,False,,,True,,False,False,False,False,False,False,False,False,False,False,0,Follow Yaw,0,0,-14.9,345.1,False,False,False,False,False,True,,True,Needs Formatted,,,1024,1024,1024,364,0,False,False,False,False,False,0,False,False,False,False,36,14.168,1019,2901,14.463,False,3.548,3.567,3.551,3.502,0.065,False,False,11.488,113.5,113.5,113.5,,,,,10,8015.9,2055.37,,Idle,,25,,10,,0,Go Home,False,False,False,False,False,False,False,False,False,False,False,False,55.3539682944175,13.4213263867747,1.2,,984.2,True,1,1,False,False,False,False,,False,False,False,Course Lock,98.4,31,16.4,18,,,,,Calm,False,False,iOS,4.3.64,Zoomster 2,0M63G820H1V008,0K8HFB801103C3,0VELF7E10601P2,0P2AF8T534023X,216.3,2175.9,392.7,31.641516,9.171454,0,164,Zoomster 2,0M63G820H1V008,0K8HFB801103C3,0VELF7E10601P2,0P2AF8T534023X,,iOS,4.3.64,111C2313-DD9C-4E0D-B5A9-A6F7704ADE73,0M63G820H1V008,0K8HFB801103C3,,0VELF7E10601P2,0P2AF8T534023X,55.3539526448148,13.4211419919757,8.0012,,
9/29/2024,3:00:47.64 PM,0m 4.0s,4.0,55.353968704276,13.4213324010021,7.2,7.2,7.5,7,1.5,0.223694,0.447388,0,0.223694,0.223694,0.447388,-4.921268,0,1.2,-4.7,-10.7,349.3,26.9,P-GPS,Auto Fly,,20,5,True,,Mavic 2,True,False,,Smart,RC,False,True,False,,,True,,False,False,False,False,False,False,False,False,False,False,0,Follow Yaw,0,0,-17.9,342.1,False,False,False,False,False,True,,True,Needs Formatted,,,1024,1024,1024,364,0,False,False,False,False,False,0,False,False,False,False,36,14.168,1019,2901,14.463,False,3.548,3.567,3.551,3.502,0.065,False,False,11.488,113.5,113.5,113.5,,,,,10,8015.9,2055.37,,Idle,,25,,10,,0,Go Home,False,False,False,False,False,False,False,False,False,False,False,False,55.3539682944175,13.4213263867747,1.2,,984.2,True,1,1,False,False,False,False,,False,False,False,Course Lock,98.4,31,16.4,18,,,,,Calm,False,False,iOS,4.3.64,Zoomster 2,0M63G820H1V008,0K8HFB801103C3,0VELF7E10601P2,0P2AF8T534023X,216.3,2175.9,392.7,31.641516,9.171454,0,164,Zoomster 2,0M63G820H1V008,0K8HFB801103C3,0VELF7E10601P2,0P2AF8T534023X,,iOS,4.3.64,111C2313-DD9C-4E0D-B5A9-A6F7704ADE73,0M63G820H1V008,0K8HFB801103C3,,0VELF7E10601P2,0P2AF8T534023X,55.3539526448148,13.4211419919757,8.0012,,
9/29/2024,3:00:47.74 PM,0m 4.1s,4.1,55.3539687854077,13.4213325691574,7.8,7.8,8.2,8,1.6,0.223694,0.447388,0,0.223694,0.223694,0.447388,-4.47388,0,0.8,-4.3,-14.5,345.5,49.6,P-GPS,Auto Fly,,20,5,True,,Mavic 2,True,False,,Smart,RC,False,True,False,,,True,,False,False,False,False,False,False,False,False,False,False,0,Follow Yaw,0,0,-23.7,336.3,False,False,False,False,False,True,,True,Needs Formatted,,,1024,1024,1024,364,0,False,False,False,False,False,0,False,False,False,False,36,14.168,1019,2901,14.463,False,3.548,3.567,3.551,3.502,0.065,False,False,11.488,113.5,113.5,113.5,,,,,10,8015.9,2055.37,,Idle,,25,,10,,0,Go Home,False,False,False,False,False,False,False,False,False,False,False,False,55.3539682944175,13.4213263867747,1.2,,984.2,True,1,1,False,False,False,False,,False,False,False,Course Lock,98.4,31,16.4,18,,,,,Calm,False,False,iOS,4.3.64,Zoomster 2,0M63G820H1V008,0K8HFB801103C3,0VELF7E10601P2,0P2AF8T534023X,216.3,2175.9,392.7,31.641516,9.171454,0,164,Zoomster 2,0M63G820H1V008,0K8HFB801103C3,0VELF7E10601P2,0P2AF8T534023X,,iOS,4.3.64,111C2313-DD9C-4E0D-B5A9-A6F7704ADE73,0M63G820H1V008,0K8HFB801103C3,,0VELF7E10601P2,0P2AF8T534023X,55.3539526448148,13.4211419919757,8.0012,,
9/29/2024,3:00:47.84 PM,0m 4.2s,4.2,55.3539690120682,13.421332560679,8.5,8.5,8.8,9,1.6,0.223694,0.447388,0,0.223694,0.223694,0.447388,-3.802798,0,0.7,-5,-19.7,340.3,358.7,P-GPS,Auto Fly,,21,5,True,,Mavic 2,True,False,,Smart,RC,False,True,False,,,True,,False,False,False,False,False,False,False,False,False,False,0,Follow Yaw,0,0,-29.8,330.2,False,False,False,False,False,True,,True,Needs Formatted,,,1024,1024,1024,364,0,False,False,False,False,False,0,False,False,False,False,36,14.168,1019,2901,14.463,False,3.548,3.567,3.551,3.502,0.065,False,False,11.488,113.5,113.5,113.5,,,,,10,8015.9,2055.37,,Idle,,25,,10,,0,Go Home,False,False,False,False,False,False,False,False,False,False,False,False,55.3539682944175,13.4213263867747,1.3,,984.2,True,1,1,False,False,False,False,,False,False,False,Course Lock,98.4,31,16.4,18,,,,,Calm,False,False,iOS,4.3.64,Zoomster 2,0M63G820H1V008,0K8HFB801103C3,0VELF7E10601P2,0P2AF8T534023X,216.3,2175.9,392.7,31.641516,9.171454,0,164,Zoomster 2,0M63G820H1V008,0K8HFB801103C3,0VELF7E10601P2,0P2AF8T534023X,,iOS,4.3.64,111C2313-DD9C-4E0D-B5A9-A6F7704ADE73,0M63G820H1V008,0K8HFB801103C3,,0VELF7E10601P2,0P2AF8T534023X,55.3539526448148,13.4211419919757,8.0012,,
9/29/2024,3:00:47.94 PM,0m 4.3s,4.3,55.3539690990619,13.421332729083,9.1,9.1,9.5,9,1.7,0.223694,0.447388,0,0.223694,0.223694,0.447388,-2.908022,0,0.5,-5.3,-25.4,334.6,47.7,P-GPS,Auto Fly,,21,5,True,,Mavic 2,True,False,,Smart,RC,False,True,False,,,True,,False,False,False,False,False,False,False,False,False,False,0,Follow Yaw,0,0,-35.8,324.2,False,False,False,False,False,True,,True,Needs Formatted,,,1024,1024,1024,364,0,False,False,False,False,False,0,False,False,False,False,36,14.168,1019,2901,14.459,False,3.548,3.567,3.551,3.502,0.065,False,False,11.488,113.5,113.5,113.5,,,,,10,10590.4,2715.51,,Idle,,25,,10,,0,Go Home,False,False,False,False,False,False,False,False,False,False,False,False,55.3539682944175,13.4213263867747,1.3,,984.2,True,1,1,False,False,False,False,,False,False,False,Course Lock,98.4,31,16.4,18,,,,,Calm,False,False,iOS,4.3.64,Zoomster 2,0M63G820H1V008,0K8HFB801103C3,0VELF7E10601P2,0P2AF8T534023X,216.3,2175.9,392.7,31.641516,9.171454,0,164,Zoomster 2,0M63G820H1V008,0K8HFB801103C3,0VELF7E10601P2,0P2AF8T534023X,,iOS,4.3.64,111C2313-DD9C-4E0D-B5A9-A6F7704ADE73,0M63G820H1V008,0K8HFB801103C3,,0VELF7E10601P2,0P2AF8T534023X,55.3539526448148,13.4211419919757,8.0012,,
9/29/2024,3:00:48.04 PM,0m 4.4s,4.4,55.3539691819584,13.4213334185576,9.5,9.5,9.8,10,1.8,0.223694,0.447388,0,0.223694,0.223694,0.447388,-2.013246,0,0,-5.3,-31.2,328.8,78.0,P-GPS,Auto Fly,,21,5,True,,Mavic 2,True,False,,Smart,RC,False,True,False,,,True,,False,False,False,False,False,False,False,False,False,False,0,Follow Yaw,0,0,-41.8,318.2,False,False,False,False,False,True,,True,Needs Formatted,,,1024,1024,1024,364,0,False,False,False,False,False,0,False,False,False,False,36,14.168,1019,2901,14.459,False,3.548,3.567,3.551,3.502,0.065,False,False,11.488,113.5,113.5,113.5,,,,,10,10590.4,2715.51,,Idle,,25,,10,,0,Go Home,False,False,False,False,False,False,False,False,False,False,False,False,55.3539682944175,13.4213263867747,1.4,,984.2,True,1,1,False,False,False,False,,False,False,False,Course Lock,98.4,31,16.4,18,,,,,Calm,False,False,iOS,4.3.64,Zoomster 2,0M63G820H1V008,0K8HFB801103C3,0VELF7E10601P2,0P2AF8T534023X,216.3,2175.9,392.7,31.641516,9.171454,0,164,Zoomster 2,0M63G820H1V008,0K8HFB801103C3,0VELF7E10601P2,0P2AF8T534023X,,iOS,4.3.64,111C2313-DD9C-4E0D-B5A9-A6F7704ADE73,0M63G820H1V008,0K8HFB801103C3,,0VELF7E10601P2,0P2AF8T534023X,55.3539526448148,13.4211419919757,8.0012,,
9/29/2024,3:00:48.14 PM,0m 4.5s,4.5,55.3539692351542,13.4213336332076,9.8,9.8,10.1,10,1.9,0.223694,0.447388,0,0.223694,0.223694,0.447388,-1.11847,0,-0.6,-5,-37,323,66.4,P-GPS,Auto Fly,,21,5,True,,Mavic 2,True,False,,Smart,RC,False,True,False,,,True,,False,False,False,False,False,False,False,False,False,False,0,Follow Yaw,0,0,-47.8,312.2,False,False,False,False,False,True,,True,Needs Formatted,,,1024,1024,1024,364,0,False,False,False,False,False,0,False,False,False,False,36,14.168,1019,2901,14.459,False,3.548,3.567,3.551,3.502,0.065,False,False,11.488,113.5,113.5,113.5,,,,,10,10590.4,2715.51,,Idle,,25,,10,,0,Go Home,False,False,False,False,False,False,False,False,False,False,False,False,55.3539682944175,13.4213263867747,1.5,,984.2,True,1,1,False,False,False,False,,False,False,False,Course Lock,98.4,31,16.4,18,,,,,Calm,False,False,iOS,4.3.64,Zoomster 2,0M63G820H1V008,0K8HFB801103C3,0VELF7E10601P2,0P2AF8T534023X,216.3,2175.9,392.7,31.641516,9.171454,0,164,Zoomster 2,0M63G820H1V008,0K8HFB801103C3,0VELF7E10601P2,0P2AF8T534023X,,iOS,4.3.64,111C2313-DD9C-4E0D-B5A9-A6F7704ADE73,0M63G820H1V008,0K8HFB801103C3,,0VELF7E10601P2,0P2AF8T534023X,55.3539526448148,13.4211419919757,8.0012,,
9/29/2024,3:00:48.24 PM,0m 4.6s,4.6,55.3539693254654,13.4213338455067,10.1,10.1,10.1,10,1.9,0.223694,0.447388,0,0.223694,0.223694,0.447388,-0.447388,0,-1.3,-4.4,-42.9,317.1,53.1,P-GPS,Auto Fly,,21,5,True,,Mavic 2,True,False,,Smart,RC,False,True,False,,,True,,False,False,False,False,False,False,False,False,False,False,0,Follow Yaw,0,0,-53.8,306.2,False,False,False,False,False,True,,True,Needs Formatted,,,1024,1024,1024,364,0,False,False,False,False,False,0,False,False,False,False,36,14.638,1016,2901,14.459,False,3.664,3.674,3.665,3.634,0.065,False,False,6.271,113.5,113.5,113.5,,,,,10,10590.4,2715.51,,Idle,,25,,10,,0,Go Home,False,False,False,False,False,False,False,False,False,False,False,False,55.3539682944175,13.4213263867747,1.5,,984.2,True,1,1,False,False,False,False,,False,False,False,Course Lock,98.4,31,16.4,18,,,,,Calm,False,False,iOS,4.3.64,Zoomster 2,0M63G820H1V008,0K8HFB801103C3,0VELF7E10601P2,0P2AF8T534023X,216.3,2175.9,392.7,31.641516,9.171454,0,164,Zoomster 2,0M63G820H1V008,0K8HFB801103C3,0VELF7E10601P2,0P2AF8T534023X,,iOS,4.3.64,111C2313-DD9C-4E0D-B5A9-A6F7704ADE73,0M63G820H1V008,0K8HFB801103C3,,0VELF7E10601P2,0P2AF8T534023X,55.3539526448148,13.4211419919757,8.0012,,
